City_ID,City,Lat,Lng,Max Temp,Humidity,Cloudiness,Wind Speed,Country,Date
0,wairoa,-39.0333,177.3667,291.23,99,100,3.13,NZ,1674088629
1,georgetown,5.4112,100.3354,298.12,87,20,2.06,MY,1674088507
2,butaritari,3.0707,172.7902,300.3,78,89,7.09,KI,1674088631
3,cabo san lucas,22.8909,-109.9124,295.32,64,20,4.63,MX,1674088631
4,bredasdorp,-34.5322,20.0403,293.15,84,6,2.61,ZA,1674088632
5,airai,-8.9266,125.4092,293.29,77,100,1.41,TL,1674088378
6,hobart,-42.8794,147.3294,289.41,47,40,6.69,AU,1674088635
7,cherskiy,68.75,161.3,230.64,99,100,1.83,RU,1674088636
8,high prairie,55.4334,-116.4858,262.6,95,92,1.1,CA,1674088637
9,port alfred,-33.5906,26.891,296.58,85,100,1.79,ZA,1674088638
10,north bend,43.4065,-124.2243,280.41,96,100,4.12,US,1674088639
11,busselton,-33.65,115.3333,295.78,45,0,5.47,AU,1674088346
12,campbellton,48.0075,-66.6727,273.4,95,100,3.63,CA,1674088484
13,coihaique,-45.5752,-72.0662,298.49,40,0,0.0,CL,1674088641
14,esperance,-33.8667,121.9,292.83,50,100,5.5,AU,1674088642
15,bluff,-46.6,168.3333,291.56,65,54,3.1,NZ,1674088643
16,norman wells,65.282,-126.8329,253.17,84,100,1.54,CA,1674088644
17,sao filipe,14.8961,-24.4956,297.19,66,2,5.73,CV,1674088645
18,rikitea,-23.1203,-134.9692,298.7,69,100,0.73,PF,1674088646
19,ponta do sol,32.6667,-17.1,289.66,67,54,4.11,PT,1674088647
20,albany,42.6001,-73.9662,277.97,80,100,1.34,US,1674088392
21,senaki,42.2704,42.0675,279.2,58,16,3.88,GE,1674088648
22,tuktoyaktuk,69.4541,-133.0374,260.15,85,100,1.54,CA,1674088649
23,kapaa,22.0752,-159.319,300.33,78,20,4.63,US,1674088650
24,kalmunai,7.4167,81.8167,296.37,68,10,3.69,LK,1674088651
25,mataura,-46.1927,168.8643,299.62,34,6,1.58,NZ,1674088652
26,cape town,-33.9258,18.4232,293.2,82,20,1.03,ZA,1674088428
27,bac lieu,9.285,105.7244,297.54,76,100,2.06,VN,1674088654
28,nikolskoye,59.7035,30.7861,274.15,98,100,4.16,RU,1674088655
29,bonfim,3.0833,-59.95,300.27,58,95,2.91,BR,1674088656
30,ushuaia,-54.8,-68.3,287.96,58,20,10.8,AR,1674088657
31,chuy,-33.6971,-53.4616,294.47,78,100,4.55,UY,1674088481
32,punta arenas,-53.15,-70.9167,291.21,59,20,7.2,CL,1674088658
33,ixtapa,20.7,-105.2,297.72,57,40,5.14,MX,1674088359
34,jamestown,42.097,-79.2353,274.95,60,100,2.57,US,1674088405
35,chokurdakh,70.6333,147.9167,235.49,100,24,2.75,RU,1674088369
36,vaini,-21.2,-175.2,304.24,70,75,3.6,TO,1674088661
37,mount gambier,-37.8333,140.7667,290.46,44,25,5.71,AU,1674088662
38,provideniya,64.3833,-173.3,249.21,70,20,4.0,RU,1674088376
39,avarua,-21.2078,-159.775,299.18,94,75,6.17,CK,1674088664
40,hithadhoo,-0.6,73.0833,300.74,72,6,3.46,MV,1674088664
41,kushiro,42.975,144.3747,264.68,53,20,1.03,JP,1674088666
42,ludza,56.55,27.7167,277.34,93,100,7.02,LV,1674088667
43,torbay,47.6666,-52.7314,277.25,94,100,5.66,CA,1674088547
44,kintinku,-5.8833,35.2333,292.27,96,96,0.97,TZ,1674088668
45,aklavik,68.2191,-135.0107,255.15,78,100,2.06,CA,1674088469
46,hermanus,-34.4187,19.2345,293.6,90,13,2.76,ZA,1674088669
47,namatanai,-3.6667,152.4333,301.95,72,88,2.89,PG,1674088416
48,barrow,71.2906,-156.7887,254.16,78,100,8.75,US,1674088671
49,lebu,-37.6167,-73.65,286.93,86,28,3.51,CL,1674088397
50,new norfolk,-42.7826,147.0587,289.77,38,21,2.24,AU,1674088438
51,del rio,29.3627,-100.8968,296.21,13,0,7.72,US,1674088673
52,atuona,-9.8,-139.0333,298.95,78,39,8.55,PF,1674088471
53,coquimbo,-29.9533,-71.3436,290.0,82,40,4.63,CL,1674088675
54,alugan,12.2188,125.4808,299.85,86,100,5.24,PH,1674088676
55,puerto colombia,10.9878,-74.9547,300.2,81,93,9.54,CO,1674088676
56,beloha,-25.1667,45.05,294.96,81,3,3.88,MG,1674088677
57,dwarka,22.2394,68.9678,292.48,53,8,4.19,IN,1674088389
58,castro,-24.7911,-50.0119,290.11,91,100,0.84,BR,1674088680
59,salalah,17.0151,54.0924,296.2,68,0,1.03,OM,1674088681
60,dallas,32.7668,-96.7836,292.59,20,20,5.14,US,1674088506
61,jingdezhen,29.2947,117.2079,279.17,58,71,0.57,CN,1674088682
62,bindki,26.0333,80.6,279.86,60,0,1.56,IN,1674088683
63,micheweni,-4.9667,39.8333,299.41,77,100,3.22,TZ,1674088493
64,waitara,-38.925,174.25,295.37,59,7,4.44,NZ,1674088685
65,qaanaaq,77.484,-69.3632,244.16,98,100,2.43,GL,1674088686
66,ust-tsilma,65.441,52.1498,263.98,96,100,2.31,RU,1674088687
67,thompson,55.7435,-97.8558,264.24,86,100,1.03,CA,1674088688
68,leh,34.1667,77.5833,259.8,87,100,0.83,IN,1674088689
69,mimoso do sul,-21.0642,-41.3664,294.96,98,32,1.19,BR,1674088690
70,katsuura,35.1333,140.3,280.16,69,100,7.07,JP,1674088691
71,lavrentiya,65.5833,-171.0,243.72,91,16,3.5,RU,1674088692
72,urucui,-7.2294,-44.5561,295.74,96,100,3.83,BR,1674088693
73,eureka,40.8021,-124.1637,280.89,95,79,0.45,US,1674088694
74,mukhen,48.1,136.1,258.98,68,100,1.94,RU,1674088695
75,puerto ayora,-0.7393,-90.3518,297.34,93,54,2.63,EC,1674088697
76,kahului,20.8947,-156.47,302.16,45,20,5.66,US,1674088698
77,hilo,19.7297,-155.09,300.0,81,100,5.66,US,1674088697
78,arraial do cabo,-22.9661,-42.0278,296.82,89,100,6.93,BR,1674088699
79,kismayo,-0.3582,42.5454,297.68,83,99,6.6,SO,1674088700
80,kaitangata,-46.2817,169.8464,293.03,68,18,3.77,NZ,1674088417
81,agadir,30.4202,-9.5982,285.4,57,0,2.91,MA,1674088702
82,bethel,41.3712,-73.414,280.79,71,100,0.45,US,1674088702
83,nagorsk,59.3172,50.8078,262.32,95,70,3.35,RU,1674088703
84,ranong,9.9658,98.6348,295.11,82,94,2.13,TH,1674088502
85,dikson,73.5069,80.5464,243.2,83,100,2.62,RU,1674088705
86,madaoua,14.073,5.96,291.18,21,0,4.39,NE,1674088706
87,leningradskiy,69.3833,178.4167,243.84,98,100,10.44,RU,1674088707
88,acarau,-2.8856,-40.12,298.45,84,100,4.68,BR,1674088708
89,tasiilaq,65.6145,-37.6368,259.24,81,100,1.89,GL,1674088709
90,kodiak,57.79,-152.4072,270.88,80,100,1.54,US,1674088710
91,sinazongwe,-17.2614,27.4618,295.65,90,100,1.71,ZM,1674088711
92,yellowknife,62.456,-114.3525,267.44,100,100,4.63,CA,1674088712
93,codrington,-38.2667,141.9667,290.04,45,34,7.08,AU,1674088714
94,sri aman,1.2376,111.4621,298.2,94,20,0.0,MY,1674088715
95,mahebourg,-20.4081,57.7,298.85,100,75,7.2,MU,1674088716
96,lebedinyy,58.5167,125.5167,225.15,99,100,1.12,RU,1674088717
97,bambous virieux,-20.3428,57.7575,298.83,100,75,7.2,MU,1674088718
98,hamilton,39.1834,-84.5333,280.34,88,100,3.09,US,1674088443
99,cidreira,-30.1811,-50.2056,296.65,90,100,6.22,BR,1674088720
100,sitka,57.0531,-135.33,277.09,81,100,4.63,US,1674088470
101,mar del plata,-38.0023,-57.5575,295.34,93,75,6.71,AR,1674088556
102,caloundra,-26.8,153.1333,300.87,63,0,1.34,AU,1674088722
103,clyde river,70.4692,-68.5914,243.28,76,100,3.09,CA,1674088723
104,petropavlovsk-kamchatskiy,53.0452,158.6483,262.48,62,75,9.0,RU,1674088724
105,severo-kurilsk,50.6789,156.125,264.17,63,100,12.63,RU,1674088725
106,vung tau,10.346,107.0843,298.51,74,100,1.91,VN,1674088726
107,crib point,-38.35,145.2,292.19,54,64,7.21,AU,1674088727
108,revda,56.801,59.9303,261.47,72,97,3.11,RU,1674088727
109,flinders,-34.5833,150.8552,290.96,83,100,7.28,AU,1674088475
110,nikitinskiy,54.5845,86.0115,259.38,95,100,5.06,RU,1674088730
111,kavieng,-2.5744,150.7967,302.39,69,26,4.62,PG,1674088696
112,singaraja,-8.112,115.0882,300.68,78,100,0.98,ID,1674088731
113,meulaboh,4.1363,96.1285,296.35,79,100,1.85,ID,1674088732
114,te anau,-45.4167,167.7167,298.16,32,9,2.35,NZ,1674088539
115,ostrovnoy,68.0531,39.5131,271.43,88,100,6.53,RU,1674088467
116,bidor,4.1139,101.2884,296.99,80,100,1.03,MY,1674088734
117,znamenskoye,57.1281,73.8282,259.96,97,81,2.74,RU,1674088735
118,aripuana,-9.1667,-60.6333,294.7,98,100,0.49,BR,1674088736
119,lorengau,-2.0226,147.2712,301.37,77,76,3.83,PG,1674088737
120,east london,-33.0153,27.9116,297.58,82,99,1.18,ZA,1674088738
121,saskylakh,71.9167,114.0833,235.02,100,40,0.58,RU,1674088739
122,gobabis,-22.45,18.9667,294.14,65,96,2.73,NA,1674088740
123,ankang,32.68,109.0172,276.8,45,100,0.28,CN,1674088740
124,serenje,-13.2325,30.2352,288.74,97,97,1.23,ZM,1674088742
125,souillac,-20.5167,57.5167,298.36,100,75,7.2,MU,1674088742
126,bandarbeyla,9.4942,50.8122,296.77,74,37,7.93,SO,1674088744
127,chilca,-12.5211,-76.7372,294.18,81,100,2.4,PE,1674088745
128,port elizabeth,-33.918,25.5701,297.77,81,0,4.12,ZA,1674088746
129,ilulissat,69.2167,-51.1,238.46,66,0,2.45,GL,1674088747
130,padang,-0.9492,100.3543,296.18,85,100,1.38,ID,1674088748
131,nhulunbuy,-12.2333,136.7667,299.49,83,0,3.09,AU,1674088749
132,buala,-8.145,159.5921,302.52,73,100,5.03,SB,1674088750
133,juba,4.8517,31.5825,296.93,34,17,1.17,SS,1674088751
134,jiayuguan,39.8167,98.3,258.86,67,78,2.32,CN,1674088752
135,batemans bay,-35.7167,150.1833,292.65,70,100,3.01,AU,1674088551
136,mount isa,-20.7333,139.5,305.02,40,0,4.63,AU,1674088754
137,tuatapere,-46.1333,167.6833,297.51,41,21,0.81,NZ,1674088755
138,bathsheba,13.2167,-59.5167,298.49,73,20,7.2,BB,1674088756
139,tiksi,71.6872,128.8694,239.08,100,95,0.11,RU,1674088757
140,alta floresta,-9.8756,-56.0861,294.0,96,56,1.39,BR,1674088758
141,kemijarvi,66.7131,27.4306,272.25,93,100,3.96,FI,1674088759
142,aykhal,66.0,111.5,228.66,100,59,1.05,RU,1674088760
143,walvis bay,-22.9575,14.5053,291.68,94,90,1.54,NA,1674088761
144,roald,62.5833,6.1333,276.67,75,40,4.63,NO,1674088762
145,brigantine,39.4101,-74.3646,282.26,67,0,7.2,US,1674088763
146,vila velha,-20.3297,-40.2925,299.23,83,75,2.57,BR,1674088764
147,upernavik,72.7868,-56.1549,245.36,74,100,2.0,GL,1674088766
148,hasaki,35.7333,140.8333,279.94,58,100,7.49,JP,1674088767
149,sao joao da barra,-21.6403,-41.0511,298.2,88,1,4.72,BR,1674088538
150,arlit,18.7369,7.3853,289.42,11,44,2.52,NE,1674088769
151,bartica,6.4,-58.6167,297.33,98,4,1.33,GY,1674088770
152,tamandare,-8.7597,-35.1047,298.15,85,39,3.12,BR,1674088771
153,athens,37.9795,23.7162,290.03,77,20,4.47,GR,1674088771
154,saint-pierre,-21.3393,55.4781,297.97,88,75,2.06,RE,1674088772
155,bengkulu,-3.8004,102.2655,298.09,85,98,1.8,ID,1674088775
156,mecca,21.4267,39.8261,295.03,44,18,1.48,SA,1674088608
157,lujan,-34.5703,-59.105,299.29,69,100,0.89,AR,1674088530
158,biak,-0.9131,122.8766,299.78,72,100,1.2,ID,1674088777
159,porto seguro,-16.4497,-39.0647,299.44,78,20,3.09,BR,1674088777
160,anshun,26.25,105.9333,273.66,82,100,3.1,CN,1674088778
161,aden,12.7794,45.0367,297.32,71,5,3.86,YE,1674088779
162,bambanglipuro,-7.95,110.2833,299.05,80,100,1.4,ID,1674088780
163,cairns,-16.9167,145.7667,300.12,78,100,4.63,AU,1674088782
164,kodinsk,58.6881,99.1844,228.76,100,98,1.37,RU,1674088782
165,bakel,14.905,-12.4568,297.33,14,2,4.31,SN,1674088783
166,pevek,69.7008,170.3133,239.9,100,100,3.43,RU,1674088721
167,musoma,-1.5,33.8,294.16,83,75,0.0,TZ,1674088785
168,olga,43.7444,135.2892,264.35,65,100,1.1,RU,1674088786
169,gondanglegi,-7.7479,112.0132,299.71,79,100,2.04,ID,1674088787
170,margate,51.3813,1.3862,275.76,85,9,1.79,GB,1674088758
171,talnakh,69.4865,88.3972,239.67,82,87,1.75,RU,1674088788
172,saint-philippe,-21.3585,55.7679,297.92,88,94,5.76,RE,1674088789
173,fortuna,40.5982,-124.1573,280.74,96,75,1.54,US,1674088790
174,tomatlan,19.9333,-105.25,292.46,77,12,1.45,MX,1674088791
175,kavaratti,10.5669,72.642,299.91,73,55,4.56,IN,1674088527
176,ancud,-41.8697,-73.8203,287.31,82,9,1.31,CL,1674088792
177,eyl,7.9803,49.8164,295.91,78,15,7.26,SO,1674088793
178,barentu,15.1139,37.5928,290.47,77,0,1.92,ER,1674088794
179,takehara,34.3383,132.9167,278.17,87,40,0.51,JP,1674088795
180,severnyy,50.677,36.5532,275.17,100,100,7.0,RU,1674088796
181,balakhta,55.38,91.6,257.59,97,100,1.55,RU,1674088798
182,lendava,46.5649,16.4509,277.57,87,100,6.1,SI,1674088798
183,khatanga,71.9667,102.5,237.34,99,18,3.0,RU,1674088703
184,beyneu,45.3167,55.2,268.99,67,0,4.46,KZ,1674088800
185,omboue,-1.5746,9.2618,298.72,83,97,2.36,GA,1674088801
186,gamba,-2.65,10.0,298.39,83,100,0.69,GA,1674088802
187,belmonte,-15.8631,-38.8828,297.39,86,29,1.5,BR,1674088803
188,sioux lookout,50.1001,-91.917,263.19,92,100,1.54,CA,1674088803
189,smithers,54.7804,-127.1743,276.33,52,20,1.03,CA,1674088804
190,asyut,27.181,31.1837,283.25,41,0,1.46,EG,1674088805
191,aksha,50.2814,113.2867,248.69,69,96,7.61,RU,1674088806
192,geraldton,-28.7667,114.6,307.38,31,0,7.72,AU,1674088807
193,tiznit,29.5833,-9.5,283.88,77,0,1.32,MA,1674088808
194,sambava,-14.2667,50.1667,298.45,93,100,14.31,MG,1674088809
195,yatou,37.15,122.3833,275.85,56,19,4.12,CN,1674088810
196,doha,25.2867,51.5333,289.14,63,0,6.17,QA,1674088811
197,kruisfontein,-34.0033,24.7314,296.93,67,13,3.77,ZA,1674088812
198,martinis,46.2333,25.3833,279.1,85,13,2.98,RO,1674088813
199,gimli,50.6336,-96.9907,263.16,92,44,2.57,CA,1674088808
200,hofn,64.2539,-15.2082,270.84,63,68,11.03,IS,1674088815
201,qaqortoq,60.7167,-46.0333,270.09,85,100,3.33,GL,1674088816
202,bugulma,54.55,52.8,255.23,79,21,2.25,RU,1674088816
203,ndele,8.4109,20.6473,294.97,26,5,2.05,CF,1674088817
204,victoria,22.2855,114.1577,288.84,75,0,4.47,HK,1674088560
205,ambatondrazaka,-17.8333,48.4167,292.84,89,100,5.9,MG,1674088819
206,qena,26.1615,32.7183,286.24,54,0,1.4,EG,1674088820
207,pacific grove,36.6177,-121.9166,285.38,76,0,3.09,US,1674088820
208,longyearbyen,78.2186,15.6401,261.06,72,0,4.12,SJ,1674088821
209,hohhot,40.8106,111.6522,262.31,62,0,6.0,CN,1674088822
210,shakiso,5.75,38.9167,285.04,49,20,2.09,ET,1674088823
211,carnarvon,-24.8667,113.6333,303.5,52,1,5.19,AU,1674088824
212,hay river,60.8156,-115.7999,263.14,92,100,2.57,CA,1674088825
213,dingle,10.9995,122.6711,299.31,88,76,6.57,PH,1674088826
214,zhuhai,22.2769,113.5678,287.03,66,0,5.14,CN,1674088826
215,marzuq,14.4,46.4667,286.68,63,7,1.7,YE,1674088827
216,ha tinh,18.3333,105.9,287.07,86,100,2.52,VN,1674088814
217,sisimiut,66.9395,-53.6735,253.69,63,100,4.69,GL,1674088829
218,anadyr,64.75,177.4833,245.43,76,40,4.0,RU,1674088830
219,faya,18.3851,42.4509,283.21,63,3,1.57,SA,1674088546
220,bilma,18.6853,12.9164,289.01,21,6,1.76,NE,1674088831
221,raga,8.4596,25.678,293.47,27,6,2.24,SS,1674088833
222,colares,38.7992,-9.4469,283.33,73,97,10.28,PT,1674088834
223,vao,-22.6667,167.4833,297.13,71,98,10.5,NC,1674088706
224,karlstad,59.3793,13.5036,274.46,100,100,4.63,SE,1674088836
225,san cristobal,7.7669,-72.225,295.25,82,14,0.54,VE,1674088756
226,glendive,47.1053,-104.7125,272.94,96,100,3.6,US,1674088686
227,teeli,51.0333,90.2333,254.72,82,95,1.46,RU,1674088838
228,buchanan,5.8808,-10.0467,298.92,88,79,1.47,LR,1674088839
229,namibe,-15.1961,12.1522,296.31,73,100,2.48,AO,1674088840
230,puerto carreno,6.189,-67.4859,299.86,48,6,3.06,CO,1674088840
231,avera,33.194,-82.5271,291.14,88,100,2.91,US,1674088841
232,concordia,-31.393,-58.0209,303.36,32,100,3.57,AR,1674088686
233,katherine,-14.4667,132.2667,300.33,83,100,3.09,AU,1674088842
234,naze,28.3667,129.4833,284.66,60,93,3.7,JP,1674088843
235,kondagaon,19.6,81.6667,285.87,84,0,0.62,IN,1674088844
236,hanko,59.8333,22.95,274.29,98,100,5.65,FI,1674088844
237,antalaha,-14.9003,50.2788,298.04,89,100,9.12,MG,1674088845
238,lagoa,39.05,-27.9833,286.31,69,1,2.24,PT,1674088846
239,gazanjyk,39.2446,55.5154,270.55,67,89,3.45,TM,1674088847
240,vardo,70.3705,31.1107,273.14,86,100,11.32,NO,1674088573
241,cockburn town,21.4612,-71.1419,297.13,57,20,3.6,TC,1674088848
242,isangel,-19.55,169.2667,300.21,83,100,5.14,VU,1674088849
243,santiago,-33.4569,-70.6483,301.23,39,0,5.14,CL,1674088553
244,narsaq,60.9167,-46.05,275.27,88,100,3.75,GL,1674088851
245,straumen,63.8709,11.2999,268.15,92,97,1.98,NO,1674088852
246,coswig,51.1333,13.5833,271.48,93,0,2.57,DE,1674088853
247,leon,21.1167,-101.6667,296.18,18,91,2.33,MX,1674088731
248,nivala,63.9167,24.9667,272.97,85,100,3.34,FI,1674088854
249,guerrero negro,27.9769,-114.0611,287.98,55,100,4.81,MX,1674088855
250,quelimane,-17.8786,36.8883,298.12,94,20,1.54,MZ,1674088856
251,la plata,-34.9215,-57.9545,298.17,74,99,7.11,AR,1674088857
252,srednekolymsk,67.45,153.6833,239.51,99,100,2.22,RU,1674088858
253,asosa,10.0667,34.5333,292.43,48,100,2.58,ET,1674088858
254,washougal,45.5826,-122.3534,279.69,94,100,2.68,US,1674088808
255,bima,-8.4667,118.7167,300.93,80,100,0.81,ID,1674088860
256,chapulhuacan,21.1667,-98.9,292.8,47,97,1.23,MX,1674088862
257,kokoda,-8.8785,147.7407,300.87,75,100,0.81,PG,1674088864
258,port macquarie,-31.4333,152.9167,303.09,62,97,4.21,AU,1674088865
259,parit buntar,5.1267,100.4932,298.15,83,38,1.36,MY,1674088866
260,pisco,-13.7,-76.2167,295.18,88,100,3.09,PE,1674088867
261,sechura,-5.5569,-80.8222,295.63,67,100,6.1,PE,1674088868
262,grand gaube,-20.0064,57.6608,298.92,87,92,4.02,MU,1674088868
263,bilibino,68.0546,166.4372,235.68,98,100,0.86,RU,1674088869
264,nanortalik,60.1432,-45.2371,271.17,82,100,6.54,GL,1674088793
265,masuguru,-11.3667,38.4167,294.76,98,100,0.95,TZ,1674088871
266,namie,37.4833,141.0,278.7,61,4,2.92,JP,1674088872
267,luganville,-15.5333,167.1667,298.26,93,100,4.61,VU,1674088872
268,kupang,-10.1667,123.5833,301.47,89,40,3.09,ID,1674088874
269,ribeira grande,38.5167,-28.7,285.8,84,18,1.79,PT,1674088875
270,kuandian,40.7286,124.7847,265.46,85,64,1.28,CN,1674088875
271,san andres,12.5847,-81.7006,300.16,78,20,3.09,CO,1674088872
272,sitio novo do tocantins,-5.5183,-47.4611,294.31,97,92,1.76,BR,1674088877
273,salinopolis,-0.6136,-47.3561,297.5,83,100,2.09,BR,1674088878
274,estepa,37.2926,-4.879,275.81,86,0,2.55,ES,1674088798
275,port hardy,50.6996,-127.4199,276.25,93,40,2.06,CA,1674088879
276,saint george,37.1041,-113.5841,281.48,42,20,4.63,US,1674088610
277,lompoc,34.6391,-120.4579,286.36,76,20,4.12,US,1674088880
278,krasnorechenskiy,44.6265,135.3532,262.14,77,100,1.38,RU,1674088881
279,sao felix do xingu,-6.6447,-51.995,294.5,98,100,0.59,BR,1674088882
280,senneterre,48.3835,-77.2328,263.53,94,100,3.31,CA,1674088883
281,chanika,-5.4167,38.0167,292.63,97,100,1.16,TZ,1674088884
282,prince rupert,54.3161,-130.3201,277.98,97,100,8.75,CA,1674088658
283,kenai,60.5544,-151.2583,268.2,92,100,2.06,US,1674088674
284,shelabolikha,53.4131,82.6167,260.27,85,100,5.12,RU,1674088886
285,brownsville,25.9018,-97.4975,299.31,87,0,4.12,US,1674088887
286,labuhan,-6.8844,112.2051,299.37,83,100,3.88,ID,1674088888
287,tura,25.5198,90.2201,283.32,69,0,1.58,IN,1674088888
288,imbituba,-28.24,-48.6703,296.35,92,87,2.49,BR,1674088889
289,chokwe,-24.5333,32.9833,298.44,75,100,2.69,MZ,1674088890
290,tianpeng,30.9866,103.9393,271.41,50,0,1.04,CN,1674088891
291,sept-iles,50.2001,-66.3821,274.44,87,100,3.09,CA,1674088877
292,araouane,18.9048,-3.5265,293.86,15,100,2.5,ML,1674088892
293,iqaluit,63.7506,-68.5145,245.2,68,0,3.09,CA,1674088893
294,gallup,35.5281,-108.7426,270.57,76,7,0.89,US,1674088720
295,bull savanna,17.8868,-77.5902,296.55,79,76,5.21,JM,1674088895
296,salym,60.0625,71.4789,257.68,99,77,1.98,RU,1674088895
297,yelizovo,53.1873,158.3805,263.23,66,75,9.83,RU,1674088897
298,novospasskoye,53.1468,47.7514,254.93,99,70,1.99,RU,1674088897
299,shizunai,42.3339,142.3669,268.89,57,56,1.49,JP,1674088697
300,springfield,37.2153,-93.2982,282.58,94,0,4.12,US,1674088810
301,pemba,-12.974,40.5178,298.54,88,20,2.06,MZ,1674088901
302,nome,64.5011,-165.4064,250.19,70,0,2.57,US,1674088901
303,svetlyy,54.675,20.1347,277.18,78,86,3.86,RU,1674088902
304,kedrovyy,56.1667,91.8167,247.38,96,100,2.37,RU,1674088903
305,andenes,69.3143,16.1194,272.55,64,100,5.14,NO,1674088904
306,portland,45.5234,-122.6762,279.77,93,100,3.58,US,1674088824
307,zalaszentgrot,46.9447,17.0792,277.13,97,100,8.72,HU,1674088905
308,fairview,40.8126,-73.999,282.72,60,0,6.69,US,1674088741
309,sur,22.5667,59.5289,294.61,75,83,6.1,OM,1674088907
310,osakarovka,50.565,72.5692,254.17,63,1,0.15,KZ,1674088908
311,tual,-5.6667,132.75,301.53,75,100,8.44,ID,1674088908
312,shingu,33.7333,135.9833,281.87,48,0,0.91,JP,1674088741
313,broome,42.2506,-75.833,277.51,88,100,3.6,US,1674088910
314,lasa,46.6166,10.7002,272.64,92,100,3.06,IT,1674088911
315,broken hill,-31.95,141.4333,292.55,31,0,9.09,AU,1674088912
316,yumen,40.2833,97.2,258.79,74,2,5.23,CN,1674088914
317,porto novo,6.4965,2.6036,301.05,81,44,2.77,BJ,1674088915
318,vidim,56.4088,103.1106,228.98,100,73,1.41,RU,1674088915
319,umtata,-31.5889,28.7844,293.19,82,73,1.54,ZA,1674088720
320,odweyne,9.4092,45.064,290.6,33,65,4.19,SO,1674088917
321,lafia,8.4833,8.5167,297.64,23,6,1.74,NG,1674088918
322,xining,36.6167,101.7667,256.61,73,1,1.17,CN,1674088919
323,nemuro,43.3236,145.575,267.35,63,81,4.33,JP,1674088920
324,monreal,12.644,123.6648,298.5,88,100,5.83,PH,1674088921
325,rio de janeiro,-22.9028,-43.2075,300.15,78,20,3.09,BR,1674088623
326,dawson,31.7735,-84.4466,293.83,79,100,5.61,US,1674088922
327,lulea,65.5842,22.1547,273.19,100,100,7.2,SE,1674088923
328,vostok,46.4856,135.8833,258.02,77,100,1.56,RU,1674088924
329,high level,58.5169,-117.136,265.21,100,40,0.0,CA,1674088925
330,krasnoselkup,65.7,82.4667,248.08,96,91,4.7,RU,1674088926
331,mangla,31.8931,72.3817,280.67,27,20,1.86,PK,1674088927
332,iracoubo,5.4802,-53.2011,296.79,88,53,3.49,GF,1674088928
333,monticello,45.3055,-93.7941,273.63,86,100,6.69,US,1674088750
334,akdepe,42.0551,59.3788,262.2,54,53,3.59,TM,1674088930
335,hefei,31.8639,117.2808,273.16,74,0,2.0,CN,1674088706
336,la romana,18.4273,-68.9728,295.35,88,20,0.0,DO,1674088868
337,komsomolskiy,40.4272,71.7189,266.55,73,97,4.12,UZ,1674088932
338,faanui,-16.4833,-151.75,300.23,72,7,6.3,PF,1674088933
339,kambove,-10.8764,26.5969,288.27,97,100,0.7,CD,1674088934
340,verkhnevilyuysk,63.4453,120.3167,216.89,100,73,1.35,RU,1674088935
341,kailua,21.4022,-157.7394,301.17,60,87,0.89,US,1674088936
342,senanga,-16.1167,23.2667,292.87,94,100,2.14,ZM,1674088937
343,manokwari,-0.8667,134.0833,300.01,72,100,1.87,ID,1674088938
344,half moon bay,37.4636,-122.4286,287.04,76,75,7.72,US,1674088939
345,marienburg,54.0359,19.0266,275.95,85,100,2.62,PL,1674088940
346,caohe,30.2297,115.4335,278.68,46,6,0.89,CN,1674088941
347,bosobolo,4.1833,19.9,295.63,39,97,0.44,CD,1674088942
348,mwinilunga,-11.7358,24.4293,288.67,97,99,1.54,ZM,1674088943
349,honningsvag,70.9821,25.9704,271.01,74,100,8.23,NO,1674088944
350,voh,-20.9667,164.7,301.8,56,9,4.67,NC,1674088945
351,kungurtug,50.5994,97.5228,243.34,96,96,0.93,RU,1674088946
352,bahia blanca,-38.7196,-62.2724,294.44,92,0,3.6,AR,1674088776
353,sao jose de piranhas,-7.1206,-38.5019,296.84,69,67,1.0,BR,1674088948
354,outjo,-20.1167,16.15,293.63,80,100,2.96,NA,1674088948
355,ambon,-3.6954,128.1814,303.23,70,20,3.09,ID,1674088949
356,waddan,29.1614,16.139,286.29,26,0,3.69,LY,1674088950
357,sorong,-0.8833,131.25,301.04,74,100,4.79,ID,1674088951
358,emborion,40.4833,21.55,282.35,82,4,3.3,GR,1674088952
359,alofi,-19.0595,-169.9187,302.09,84,40,4.63,NU,1674088953
360,rantepao,-2.9701,119.8978,297.67,77,95,0.56,ID,1674088954
361,ransang,8.9603,117.5828,300.24,79,100,1.68,PH,1674088955
362,jackson,42.4165,-122.8345,277.25,92,100,2.57,US,1674088956
363,sudak,44.85,34.9667,283.37,70,69,1.66,UA,1674088957
364,mandalgovi,45.7625,106.2708,250.44,75,1,5.03,MN,1674088958
365,massakory,12.996,15.7293,294.04,23,0,3.85,TD,1674088959
366,zhangye,38.9342,100.4517,258.79,70,21,2.08,CN,1674088961
367,marsh harbour,26.5412,-77.0636,295.87,65,99,3.91,BS,1674088962
368,kaeo,-35.1,173.7833,294.44,70,66,2.96,NZ,1674088962
369,rabo de peixe,37.8,-25.5833,283.88,76,20,3.6,PT,1674088963
370,letlhakane,-21.4167,25.5833,294.95,69,31,3.48,BW,1674088964
371,iquique,-20.2208,-70.1431,295.17,81,80,1.45,CL,1674088965
372,henties bay,-22.116,14.2845,291.97,88,41,3.09,NA,1674088966
373,selimpasa,41.0558,28.379,289.23,71,27,10.79,TR,1674088967
374,valparaiso,-33.0393,-71.6273,291.75,100,20,3.6,CL,1674088967
375,humaita,-7.5061,-63.0208,295.0,94,100,1.11,BR,1674088968
376,san patricio,28.017,-97.5169,298.12,54,7,3.16,US,1674088970
377,svetlogorsk,52.6333,29.7333,277.73,87,54,5.99,BY,1674088970
378,nagapattinam,10.7667,79.8333,296.87,62,96,3.42,IN,1674088971
379,harlingen,26.1906,-97.6961,299.29,78,0,4.63,US,1674088920
380,roma,43.2128,-75.4557,276.53,95,100,4.12,US,1674088973
381,san juan de opoa,14.7833,-88.7,301.6,34,20,3.09,HN,1674088973
382,saldanha,-33.0117,17.9442,293.18,97,83,2.3,ZA,1674088974
383,boden,65.8252,21.6886,273.15,94,95,4.04,SE,1674088975
384,maputo,-25.9653,32.5892,297.97,83,0,1.03,MZ,1674088976
385,asau,46.4333,26.4,279.66,81,60,1.73,RO,1674088977
386,neka,36.6508,53.299,277.6,79,40,1.37,IR,1674088977
387,chaman,30.9236,66.4512,277.46,90,100,1.4,PK,1674088978
388,fort nelson,58.8053,-122.7002,260.34,89,75,0.0,CA,1674088923
389,pangnirtung,66.1451,-65.7125,246.04,64,7,2.87,CA,1674088980
390,nikel,69.4128,30.222,271.25,92,100,4.6,RU,1674088981
391,derzhavinsk,51.1,66.3167,251.21,81,50,2.2,KZ,1674088982
392,peace river,56.2501,-117.286,266.32,93,75,2.06,CA,1674088928
393,the valley,18.217,-63.0578,298.61,88,20,1.54,AI,1674088983
394,langenburg,49.2544,9.8458,270.29,89,40,2.57,DE,1674088985
395,aklera,24.4167,76.5667,283.07,37,5,1.91,IN,1674088986
396,najran,17.4924,44.1277,284.51,74,4,0.78,SA,1674088987
397,arboletes,8.8505,-76.4269,298.44,82,3,3.0,CO,1674088988
398,port saint john,28.477,-80.7887,293.69,81,0,2.06,US,1674088989
399,sabang,5.8933,95.3214,299.67,76,100,7.22,ID,1674088990
400,moussoro,13.6408,16.4901,292.85,23,3,4.44,TD,1674088991
401,nandurbar,21.3667,74.25,290.91,44,6,2.81,IN,1674088994
402,jining,35.405,116.5814,274.53,46,38,1.78,CN,1674088995
403,panjab,34.388,67.0233,258.49,98,99,1.77,AF,1674088996
404,mattawa,46.7379,-119.9028,278.71,85,100,1.62,US,1674088997
405,tilichiki,60.4667,166.1,250.46,87,100,4.34,RU,1674088998
406,piacabucu,-10.4056,-36.4344,298.36,81,15,3.2,BR,1674088999
407,tokat,40.4167,36.5833,274.15,65,5,2.43,TR,1674089000
408,itupiranga,-5.1347,-49.3267,296.33,98,100,1.17,BR,1674088780
409,carutapera,-1.195,-46.02,296.39,93,99,0.53,BR,1674089002
410,russell,32.3502,-85.1999,292.82,94,75,2.57,US,1674088841
411,vila franca do campo,37.7167,-25.4333,284.38,80,1,1.97,PT,1674089003
412,lastoursville,-0.8143,12.7287,295.86,93,99,0.76,GA,1674089004
413,siwan,26.2167,84.3667,280.52,68,0,1.39,IN,1674089005
414,camacha,33.0833,-16.3333,286.83,67,75,6.17,PT,1674089006
415,qasigiannguit,68.8193,-51.1922,238.13,66,0,1.74,GL,1674089007
416,kargasok,59.0556,80.8572,258.0,96,100,3.07,RU,1674089008
417,praia da vitoria,38.7333,-27.0667,284.68,87,0,1.54,PT,1674089009
418,sao jose da coroa grande,-8.8978,-35.1478,298.29,85,33,3.58,BR,1674089010
419,itarema,-2.9248,-39.9167,298.42,84,100,4.37,BR,1674089011
420,warwick,41.7001,-71.4162,280.53,72,20,5.66,US,1674088953
421,abu samrah,35.3029,37.1841,281.74,87,0,2.01,SY,1674089013
422,cap malheureux,-19.9842,57.6142,298.97,87,94,4.02,MU,1674089013
423,tonkino,57.3726,46.4629,265.0,92,11,4.86,RU,1674089014
424,cayenne,4.9333,-52.3333,296.17,94,100,0.0,GF,1674088789
425,koscian,52.0883,16.6487,275.0,96,100,1.97,PL,1674089016
426,severnyy-kospashskiy,59.0925,57.8008,257.6,98,100,1.69,RU,1674089017
427,chara,56.9064,118.2631,232.89,87,100,0.47,RU,1674089018
428,gao,16.6362,1.637,291.78,15,3,4.4,ML,1674089018
429,pa daet,19.5049,99.9924,290.28,83,7,0.3,TH,1674089020
430,dunedin,-45.8742,170.5036,294.15,70,64,3.13,NZ,1674089021
431,orlik,52.5178,99.825,237.16,96,35,1.29,RU,1674089022
432,sakakah,29.9697,40.2064,280.91,62,0,1.62,SA,1674089023
433,nador,35.174,-2.9287,286.29,54,40,9.77,MA,1674089024
434,linqiong,30.4159,103.4609,272.05,55,0,0.33,CN,1674089024
435,soto la marina,23.7667,-98.2167,297.58,50,97,2.17,MX,1674089026
436,tazovskiy,67.4667,78.7,249.18,96,100,4.29,RU,1674089027
437,deputatskiy,69.3,139.9,239.06,100,99,0.39,RU,1674089017
438,rio gallegos,-51.6226,-69.2181,295.18,30,20,7.72,AR,1674089028
439,pong,19.1493,100.2752,291.6,76,0,0.27,TH,1674089029
440,saint-augustin,51.226,-58.6502,273.28,97,99,2.41,CA,1674089030
441,klaksvik,62.2266,-6.589,277.66,93,100,10.02,FO,1674089031
442,saint anthony,45.0205,-93.218,273.68,85,100,5.14,US,1674089031
443,fomboni,-12.28,43.7425,300.94,68,100,3.71,KM,1674089033
444,lata,40.1629,-8.3327,277.64,89,10,0.23,PT,1674088918
445,nha trang,12.25,109.1833,297.15,79,100,4.22,VN,1674088851
446,havre-saint-pierre,50.2334,-63.5986,274.35,100,100,1.54,CA,1674089035
447,sola,-13.8833,167.55,300.52,74,100,4.12,VU,1674089036
448,payo,-3.7508,103.6372,295.46,99,100,1.25,ID,1674089036
449,portales,34.1862,-103.3344,281.89,30,0,10.41,US,1674089037
450,mareeba,-17.0,145.4333,298.55,94,100,0.52,AU,1674089038
451,lokosovo,61.1333,74.8167,255.41,98,54,3.5,RU,1674089039
452,yulara,-25.2406,130.9889,301.34,32,16,7.61,AU,1674089041
453,kruszwica,52.6756,18.3313,273.02,98,100,1.43,PL,1674089042
454,lakota,5.8528,-5.6883,295.17,99,71,1.25,CI,1674089043
455,plastun,44.7561,136.2939,263.36,59,100,0.93,RU,1674089044
456,daura,11.5538,11.4085,290.73,30,0,3.52,NG,1674089045
457,los llanos de aridane,28.6585,-17.9182,288.01,82,75,8.23,ES,1674089046
458,arrifes,37.7667,-25.7,283.29,76,20,3.6,PT,1674089047
459,harur,12.0667,78.5,288.81,95,97,0.37,IN,1674089049
460,guerande,47.3291,-2.4283,275.68,72,86,8.02,FR,1674089050
461,la ronge,55.1001,-105.2842,266.29,93,100,3.09,CA,1674089051
462,rodrigues alves,-7.738,-72.6509,295.82,97,100,0.45,BR,1674089052
463,ust-kuyga,70.0167,135.6,232.92,100,100,1.72,RU,1674089052
464,estrela,-28.0611,-50.9383,290.87,98,56,2.62,BR,1674089053
465,wagga wagga,-35.1167,147.3667,294.04,67,0,1.79,AU,1674089054
466,neyshabur,36.2133,58.7958,272.99,72,72,0.51,IR,1674089055
467,cuiluan,47.72,128.648,258.8,91,100,0.87,CN,1674089057
468,porto murtinho,-21.6989,-57.8825,298.22,75,26,1.51,BR,1674089058
469,loa janan,-0.583,117.095,299.76,80,89,1.03,ID,1674089059
470,chernyshevskiy,63.0128,112.4714,227.07,100,96,1.0,RU,1674089060
471,belyy yar,53.6039,91.3903,258.07,83,100,0.0,RU,1674089061
472,bagan,54.1001,77.6646,258.65,93,26,4.41,RU,1674089062
473,turiacu,-1.6633,-45.3717,295.81,96,94,0.3,BR,1674089063
474,revelstoke,50.9832,-118.2023,275.16,93,100,4.63,CA,1674088971
475,tateyama,34.9833,139.8667,281.54,76,100,5.48,JP,1674089065
476,inuvik,68.3499,-133.7218,257.71,85,100,1.54,CA,1674089066
477,fare,-16.7,-151.0167,300.42,70,4,6.52,PF,1674089066
478,kenora,49.8167,-94.4337,263.69,85,100,3.6,CA,1674089048
479,gazli,40.1333,63.45,265.88,67,49,1.87,UZ,1674089068
480,moindou,-21.6924,165.677,300.22,61,5,7.74,NC,1674089069
481,minab,27.1467,57.0801,287.58,60,8,7.94,IR,1674089070
482,kalinovskoye,44.8635,42.9622,272.68,97,96,4.98,RU,1674089071
483,rocha,-34.4833,-54.3333,292.39,90,100,2.93,UY,1674088789
484,sape,-7.0964,-35.2328,296.8,87,14,2.72,BR,1674089072
485,illapel,-31.6308,-71.1653,294.16,66,0,1.56,CL,1674089073
486,okha,53.5739,142.9478,240.68,95,19,3.87,RU,1674089074
487,marsa matruh,31.3525,27.2453,284.26,82,0,1.54,EG,1674089075
488,krasnaya gorka,55.1962,56.6673,252.66,96,75,1.24,RU,1674089076
489,mlimba,-8.8,35.8167,294.74,98,100,0.58,TZ,1674089077
490,praya,14.9215,-23.5087,295.45,78,0,10.29,CV,1674089078
491,kawhia,-38.0651,174.8183,294.11,64,79,1.99,NZ,1674089078
492,kabo,7.6994,18.629,294.61,28,11,1.42,CF,1674089079
493,omsukchan,62.5333,155.8,236.97,94,100,2.62,RU,1674089080
494,ushumun,52.7833,126.5333,243.7,94,100,3.77,RU,1674089081
495,natal,-5.795,-35.2094,296.51,100,0,1.54,BR,1674089082
496,alice town,25.7167,-79.3,296.32,66,0,3.97,BS,1674089082
497,panino,51.6467,40.1346,270.92,84,100,7.67,RU,1674089083
498,maraba,-5.3686,-49.1178,296.25,100,75,0.0,BR,1674089084
499,acapulco,16.8634,-99.8901,299.05,69,40,4.63,MX,1674088981
500,puerto del rosario,28.5004,-13.8627,291.01,68,100,8.75,ES,1674089085
501,marataizes,-21.0433,-40.8244,296.64,90,0,4.44,BR,1674089086
502,nyaunglebin,17.95,96.7333,291.85,79,100,1.16,MM,1674089087
503,mogadishu,2.0371,45.3438,297.77,84,100,8.52,SO,1674089088
504,hailey,43.5196,-114.3153,267.07,72,100,1.79,US,1674089089
505,burnie,-41.0667,145.9167,290.9,49,6,1.77,AU,1674088899
506,ajdabiya,30.7554,20.2263,286.31,46,100,6.13,LY,1674089090
507,bacolod,10.6667,122.95,299.64,85,64,7.56,PH,1674089091
508,kharabali,47.4196,47.2568,267.19,88,6,3.93,RU,1674089092
509,kananga,-5.8958,22.4178,292.21,96,83,1.33,CD,1674089093
510,olpad,21.3333,72.75,290.35,45,5,3.23,IN,1674089094
511,zhigansk,66.7697,123.3711,226.28,96,71,4.91,RU,1674089094
512,haines junction,60.7522,-137.5108,259.27,100,95,0.54,CA,1674089095
513,chubbuck,42.9208,-112.4661,271.09,80,75,1.54,US,1674089096
514,badiraguato,25.3667,-107.5167,290.81,41,10,1.5,MX,1674089097
515,sal rei,16.1833,-22.9167,295.77,72,0,10.36,CV,1674089098
516,yarada,17.65,83.2667,293.33,100,40,1.03,IN,1674089099
517,madang,-5.2246,145.7966,303.03,64,100,2.13,PG,1674089108
518,husavik,66.0449,-17.3389,269.11,76,100,4.94,IS,1674089109
519,tagusao,9.1924,117.8141,300.12,79,100,1.69,PH,1674089110
520,male,4.1748,73.5089,301.12,74,75,7.72,MV,1674089111
521,sainte-suzanne,-20.9061,55.6089,299.25,95,75,7.2,RE,1674089112
522,san quintin,30.4833,-115.95,286.78,60,100,3.83,MX,1674089113
523,igarka,67.4667,86.5833,245.92,85,100,2.24,RU,1674089114
524,santa cruz,-17.8,-63.1667,299.85,78,40,2.06,BO,1674088889
525,virginia beach,36.8529,-75.978,284.83,75,75,2.06,US,1674089115
526,escarcega,18.6089,-90.7454,300.21,51,26,2.12,MX,1674089116
527,tonj,7.2737,28.6822,296.44,26,74,2.31,SS,1674089117
528,grindavik,63.8424,-22.4338,267.41,79,0,3.09,IS,1674089118
529,kaniama,-7.5667,24.1833,290.53,97,100,1.15,CD,1674089119
530,emerald,-23.5333,148.1667,300.56,64,0,4.46,AU,1674089120
531,handan,36.6006,114.4678,276.16,30,0,4.76,CN,1674089121
532,constitucion,-35.3333,-72.4167,286.91,92,15,2.07,CL,1674089123
533,fairbanks,64.8378,-147.7164,252.93,76,20,0.0,US,1674089040
534,rosetta,31.4044,30.4164,287.31,77,0,4.42,EG,1674089124
535,paita,-5.0892,-81.1144,294.31,80,73,5.08,PE,1674089125
536,hovd,48.0056,91.6419,256.94,72,100,0.35,MN,1674089126
537,den helder,52.9599,4.7593,278.7,83,100,13.41,NL,1674089127
538,todos santos,23.45,-110.2167,293.52,76,35,4.1,MX,1674089128
539,kaduy,59.2,37.15,274.57,96,100,7.22,RU,1674089129
540,ucluelet,48.9329,-125.5528,280.32,91,13,4.62,CA,1674089130
541,grand-santi,4.25,-54.3833,295.09,97,94,1.08,GF,1674089131
542,oistins,13.0667,-59.5333,298.2,73,20,7.2,BB,1674089132
543,tessalit,20.1986,1.0114,291.25,17,92,0.9,ML,1674089133
544,kulhudhuffushi,6.6221,73.07,300.23,73,4,8.68,MV,1674089134
545,zarate,-34.0981,-59.0286,299.16,82,100,3.58,AR,1674089135
